City_ID,City,Lat,Lng,Max Temp,Humidity,Cloudiness,Wind Speed,Country,Date
0,tilichiki,60.4667,166.1,12.09,86,99,8.39,RU,1635033059
1,punta arenas,-53.15,-70.9167,35.71,87,90,27.63,CL,1635033061
2,praya,14.9215,-23.5087,77.54,78,0,12.66,CV,1635033064
3,antofagasta,-23.65,-70.4,60.08,77,6,7.76,CL,1635033066
4,severodvinsk,64.5635,39.8302,24.91,83,100,4.94,RU,1635033068
5,komsomolets,53.7453,62.0708,46.08,85,91,11.34,KZ,1635033071
6,nabire,-3.3667,135.4833,80.49,85,83,0.11,ID,1635033073
7,thompson,55.7435,-97.8558,33.96,75,75,3.44,CA,1635032961
8,paamiut,61.994,-49.6678,32.2,50,75,12.15,GL,1635033077
9,jamestown,42.097,-79.2353,45.01,95,90,3.0,US,1635033048
10,albany,42.6001,-73.9662,49.59,70,96,5.26,US,1635032937
11,mount gambier,-37.8333,140.7667,53.51,58,90,17.27,AU,1635033088
12,kankon,15.0167,74.0167,78.6,86,86,3.36,IN,1635033090
13,calvinia,-31.4707,19.776,45.82,76,0,2.24,ZA,1635033093
14,caravelas,-17.7125,-39.2481,75.45,81,54,5.35,BR,1635033095
15,kapaa,22.0752,-159.319,81.19,80,40,4.0,US,1635033097
16,hithadhoo,-0.6,73.0833,82.69,71,80,11.63,MV,1635033100
17,rikitea,-23.1203,-134.9692,75.16,79,90,18.61,PF,1635033102
18,barrow,71.2906,-156.7887,28.42,86,90,13.8,US,1635033105
19,provideniya,64.3833,-173.3,25.81,77,100,8.21,RU,1635033107
20,nikolskoye,59.7035,30.7861,36.79,90,99,9.95,RU,1635033109
21,samarai,-10.6167,150.6667,80.85,82,66,11.72,PG,1635033112
22,lasa,46.6166,10.7002,40.08,49,7,2.15,IT,1635033114
23,vaini,-21.2,-175.2,72.16,67,71,19.48,TO,1635033116
24,norman wells,65.282,-126.8329,42.84,65,40,4.61,CA,1635033121
25,chokurdakh,70.6333,147.9167,-2.22,98,100,6.51,RU,1635033123
26,nueva loja,0.0847,-76.8828,76.48,87,91,2.15,EC,1635033016
27,ushuaia,-54.8,-68.3,33.46,93,40,17.27,AR,1635033128
28,busselton,-33.65,115.3333,62.04,63,93,4.21,AU,1635033130
29,butaritari,3.0707,172.7902,81.14,73,98,8.19,KI,1635033132
30,aykhal,66.0,111.5,24.26,93,100,22.17,RU,1635033137
31,waipawa,-41.4122,175.5153,58.3,73,99,4.72,NZ,1635033139
32,qaanaaq,77.484,-69.3632,-0.81,57,0,8.08,GL,1635033141
33,yellowknife,62.456,-114.3525,42.42,84,75,14.97,CA,1635033144
34,mataura,-46.1927,168.8643,56.98,87,100,1.39,NZ,1635033146
35,ilulissat,69.2167,-51.1,14.95,97,100,2.73,GL,1635033149
36,hobart,-42.8794,147.3294,53.02,80,75,3.0,AU,1635032995
37,saskylakh,71.9167,114.0833,7.36,94,100,15.03,RU,1635033153
38,naze,28.3667,129.4833,63.52,64,99,20.96,JP,1635033133
39,quimper,48.0,-4.1,54.18,76,90,5.75,FR,1635033158
40,tuktoyaktuk,69.4541,-133.0374,30.2,86,90,9.22,CA,1635033160
41,ucluelet,48.9329,-125.5528,55.71,80,49,1.01,CA,1635033027
42,birao,10.2849,22.7882,75.13,73,99,4.43,CF,1635033164
43,porto novo,6.4965,2.6036,80.42,88,100,1.5,BJ,1635033166
44,gornopravdinsk,60.05,69.9,39.18,76,94,11.45,RU,1635033169
45,maibong,25.3,93.1667,64.51,88,8,0.81,IN,1635033171
46,port alfred,-33.5906,26.891,59.05,67,3,17.22,ZA,1635033174
47,codrington,-38.2667,141.9667,52.45,67,55,15.26,AU,1635033176
48,los llanos de aridane,28.6585,-17.9182,65.12,78,75,4.0,ES,1635033178
49,askarovo,53.3372,58.5089,40.15,93,75,8.95,RU,1635033180
50,mareeba,-17.0,145.4333,86.32,58,42,8.9,AU,1635033183
51,aiquile,-18.2041,-65.1807,68.09,60,59,4.59,BO,1635033185
52,ribeira grande,38.5167,-28.7,67.6,60,22,11.16,PT,1635033187
53,vardo,70.3705,31.1107,35.22,67,89,24.85,NO,1635033190
54,saint-denis,48.9167,2.3333,47.17,82,0,3.44,FR,1635033192
55,cartagena del chaira,1.3349,-74.8429,77.63,77,86,3.04,CO,1635033194
56,luderitz,-26.6481,15.1594,56.68,72,0,18.03,NA,1635033197
57,hami,42.8,93.45,47.28,45,100,3.42,CN,1635033201
58,alta floresta,-9.8756,-56.0861,76.41,76,97,4.41,BR,1635033205
59,utica,43.1009,-75.2327,49.62,88,96,5.55,US,1635033049
60,sandnessjoen,66.0217,12.6316,40.98,92,100,1.99,NO,1635033210
61,kollo,13.3043,2.339,88.23,59,100,6.42,NE,1635033212
62,ancud,-41.8697,-73.8203,49.53,75,32,9.17,CL,1635033214
63,karakol,42.4907,78.3936,29.14,42,0,5.32,KG,1635033217
64,avarua,-21.2078,-159.775,75.25,57,75,11.5,CK,1635033219
65,chuy,-33.6971,-53.4616,56.75,93,100,5.37,UY,1635033221
66,qui nhon,13.7667,109.2333,76.33,94,100,10.51,VN,1635033223
67,esperance,-33.8667,121.9,58.84,49,20,18.5,AU,1635033226
68,galesong,-5.3166,119.3661,78.82,72,91,5.32,ID,1635033228
69,qurayyat,31.3318,37.3428,62.78,55,0,16.11,SA,1635033230
70,abu dhabi,24.4667,54.3667,84.07,62,0,5.32,AE,1635033233
71,port blair,11.6667,92.75,77.04,94,75,2.3,IN,1635033235
72,axim,4.8699,-2.2405,76.93,87,45,3.24,GH,1635033237
73,faanui,-16.4833,-151.75,76.68,85,86,11.86,PF,1635033239
74,port lincoln,-34.7333,135.8667,59.47,62,5,11.39,AU,1635033242
75,shadrinsk,56.0852,63.6335,43.29,83,14,12.88,RU,1635033244
76,grindavik,63.8424,-22.4338,46.87,100,90,9.22,IS,1635033246
77,villa rica,33.7321,-84.9191,64.78,91,0,2.89,US,1635033249
78,katsuura,35.1333,140.3,63.19,56,60,7.78,JP,1635033251
79,hermanus,-34.4187,19.2345,55.9,70,31,2.77,ZA,1635033255
80,bethel,41.3712,-73.414,55.65,74,92,5.21,US,1635033258
81,mahon,39.8885,4.2658,63.16,82,0,9.22,ES,1635033260
82,lompoc,34.6391,-120.4579,73.42,71,1,18.41,US,1635033262
83,viedma,-40.8135,-62.9967,48.74,22,8,10.65,AR,1635033265
84,kavieng,-2.5744,150.7967,85.66,67,68,11.74,PG,1635033267
85,aljezur,37.3191,-8.8033,60.31,68,11,5.73,PT,1635033269
86,longyearbyen,78.2186,15.6401,19.24,73,20,4.61,SJ,1635033272
87,puerto ayora,-0.7393,-90.3518,69.26,87,90,9.22,EC,1635033250
88,dobre miasto,53.9867,20.3975,36.28,74,99,6.55,PL,1635033070
89,bluff,-46.6,168.3333,52.05,95,100,2.24,NZ,1635033278
90,saint-joseph,-21.3667,55.6167,73.76,82,28,5.55,RE,1635033280
91,srandakan,-7.9386,110.2506,80.33,79,80,4.23,ID,1635033287
92,kaitangata,-46.2817,169.8464,57.09,72,100,3.49,NZ,1635033289
93,luganville,-15.5333,167.1667,83.28,75,38,8.93,VU,1635033291
94,mar del plata,-38.0023,-57.5575,53.87,68,40,1.99,AR,1635033294
95,dikson,73.5069,80.5464,8.69,87,100,13.58,RU,1635033296
96,fortuna,40.5982,-124.1573,64.09,79,20,5.99,US,1635033298
97,atuona,-9.8,-139.0333,78.35,77,13,17.65,PF,1635033245
98,zhuhai,22.2769,113.5678,69.06,82,40,18.41,CN,1635033303
99,ati,13.2154,18.3353,86.88,21,24,10.04,TD,1635033305
100,kodiak,57.79,-152.4072,42.55,92,100,18.97,US,1635033308
101,husavik,66.0449,-17.3389,33.71,96,100,4.47,IS,1635033312
102,acapulco,16.8634,-99.8901,75.0,92,100,10.6,MX,1635033147
103,palmer,42.1584,-72.3287,54.03,61,75,4.61,US,1635033319
104,cape town,-33.9258,18.4232,56.12,74,0,1.14,ZA,1635033321
105,santa rita,-7.1139,-34.9781,81.27,78,20,8.05,BR,1635033323
106,lata,40.1629,-8.3327,58.82,66,21,2.35,PT,1635033326
107,nipawin,53.3668,-104.0009,39.24,70,40,12.66,CA,1635033330
108,hasaki,35.7333,140.8333,59.4,50,9,5.53,JP,1635033332
109,pauini,-7.7136,-66.9764,83.25,66,89,2.08,BR,1635033335
110,tema,5.667,-0.0166,78.24,84,74,4.47,GH,1635033339
111,pokhara,28.2333,83.9833,62.38,65,47,4.83,NP,1635033072
112,verkhnetulomskiy,68.6073,31.7962,23.13,85,86,6.29,RU,1635033344
113,san patricio,28.017,-97.5169,84.29,66,6,10.6,US,1635033346
114,hilo,19.7297,-155.09,84.27,69,75,6.91,US,1635033135
115,alofi,-19.0595,-169.9187,76.89,57,88,18.41,NU,1635033350
116,petropavlovsk-kamchatskiy,53.0452,158.6483,36.19,81,75,2.24,RU,1635033352
117,victoria,22.2855,114.1577,69.33,76,85,5.99,HK,1635033261
118,rundu,-17.9333,19.7667,79.18,42,94,4.25,NA,1635033357
119,sitka,57.0531,-135.33,46.29,71,75,9.22,US,1635033170
120,pacific grove,36.6177,-121.9166,66.97,80,51,1.01,US,1635033360
121,aklavik,68.2191,-135.0107,30.92,80,75,6.91,CA,1635033363
122,shepsi,44.0361,39.1489,60.13,68,53,4.61,RU,1635033368
123,evensk,61.95,159.2333,14.77,69,93,11.25,RU,1635033370
124,taylor,32.3001,-99.8337,83.93,49,1,5.01,US,1635033154
125,saint-philippe,-21.3585,55.7679,74.75,84,48,11.54,RE,1635033376
126,honiara,-9.4333,159.95,87.31,59,48,3.91,SB,1635033379
127,tateyama,34.9833,139.8667,63.1,52,62,7.56,JP,1635033381
128,new norfolk,-42.7826,147.0587,52.66,78,100,4.0,AU,1635033258
129,foki,56.693,54.3499,37.9,86,42,5.01,RU,1635033385
130,bambous virieux,-20.3428,57.7575,74.21,83,40,11.5,MU,1635033257
131,zhicheng,30.2956,111.5047,54.57,59,33,2.66,CN,1635033390
132,batagay-alyta,67.8006,130.4114,5.14,96,100,2.71,RU,1635033392
133,maningrida,-12.0667,134.2667,88.93,56,32,9.06,AU,1635033394
134,oak harbor,48.2932,-122.6432,56.57,86,99,8.01,US,1635033397
135,khatanga,71.9667,102.5,9.66,90,100,16.67,RU,1635033260
136,konya,38.1667,32.5,48.88,23,5,2.68,TR,1635033401
137,east london,-33.0153,27.9116,59.9,66,37,19.51,ZA,1635033351
138,camacha,33.0833,-16.3333,67.42,52,75,8.05,PT,1635033407
139,wajima,37.4,136.9,56.08,82,40,0.0,JP,1635033410
140,yanam,16.7333,82.2167,74.53,92,93,2.84,IN,1635033412
141,marquette,46.5333,-87.6335,40.77,73,98,7.74,US,1635033414
142,georgetown,5.4112,100.3354,78.89,88,20,1.99,MY,1635033304
143,rio grande,-32.035,-52.0986,58.95,92,100,10.33,BR,1635033419
144,pochutla,15.7432,-96.4661,80.82,86,84,5.12,MX,1635033421
145,sao mateus,-18.7161,-39.8589,72.19,89,24,5.37,BR,1635033423
146,aquiraz,-3.9014,-38.3911,82.49,78,8,11.14,BR,1635033426
147,santa rosa,14.3122,121.1114,79.11,90,100,8.21,PH,1635033204
148,whyalla,-33.0333,137.5833,58.89,58,75,14.97,AU,1635033430
149,khani,41.9563,42.9566,35.17,54,0,4.81,GE,1635033432
150,alfred,42.2542,-77.7906,44.51,86,62,4.0,US,1635033435
151,torbay,47.6666,-52.7314,59.68,97,90,13.8,CA,1635033367
152,mogadishu,2.0371,45.3438,78.96,83,8,10.11,SO,1635033439
153,ginir,7.1333,40.7,55.96,49,2,6.82,ET,1635033441
154,yar-sale,66.8333,70.8333,27.54,95,96,9.78,RU,1635033444
155,nainpur,22.4333,80.1167,62.67,75,4,1.34,IN,1635033446
156,redlands,34.0556,-117.1825,71.65,64,49,1.01,US,1635033448
157,tasiilaq,65.6145,-37.6368,29.03,93,100,7.4,GL,1635033450
158,gambela,8.25,34.5833,71.1,65,4,4.03,ET,1635033453
159,santa vitoria do palmar,-33.5189,-53.3681,56.64,94,100,5.95,BR,1635033363
160,dinguiraye,11.3,-10.7167,71.8,91,43,1.52,GN,1635033457
161,geraldton,-28.7667,114.6,61.21,82,19,1.14,AU,1635033251
162,kachug,53.9606,105.8817,34.32,91,100,2.06,RU,1635033461
163,guerrero negro,27.9769,-114.0611,68.94,70,1,18.03,MX,1635033464
164,mecca,21.4267,39.8261,79.48,59,0,0.69,SA,1635033458
165,tougue,11.4667,-11.6,68.81,92,53,2.71,GN,1635033468
166,port-gentil,-0.7193,8.7815,78.76,83,75,8.05,GA,1635033470
167,san quintin,30.4833,-115.95,64.98,70,35,20.94,MX,1635033473
168,jinchang,38.4953,102.1739,43.47,67,63,2.3,CN,1635033475
169,santa rosalia,27.3167,-112.2833,80.42,43,0,5.35,MX,1635033477
170,padang,-0.9492,100.3543,75.25,89,97,4.81,ID,1635033479
171,zhigansk,66.7697,123.3711,25.81,95,100,5.79,RU,1635033482
172,vila,42.0304,-8.1588,46.92,90,21,3.15,PT,1635033485
173,lisala,2.15,21.5167,70.21,99,94,1.34,CD,1635033294
174,gerash,27.6652,54.1371,66.2,76,0,2.28,IR,1635033489
175,ahipara,-35.1667,173.1667,63.73,87,77,7.96,NZ,1635033491
176,bilma,18.6853,12.9164,80.35,15,18,6.53,NE,1635033493
177,maraa,-1.8333,-65.3667,77.31,89,83,2.68,BR,1635033498
178,kruisfontein,-34.0033,24.7314,53.26,69,15,10.54,ZA,1635033322
179,cidreira,-30.1811,-50.2056,64.83,91,100,8.7,BR,1635033502
180,carnarvon,-24.8667,113.6333,69.87,83,0,8.05,AU,1635033504
181,humberto de campos,-2.5983,-43.4611,77.74,88,54,4.9,BR,1635033507
182,port macquarie,-31.4333,152.9167,82.89,64,10,16.96,AU,1635033509
183,pevek,69.7008,170.3133,9.23,93,100,6.58,RU,1635033381
184,port keats,-14.25,129.55,88.12,61,16,7.47,AU,1635033513
185,coari,-4.085,-63.1414,80.31,74,91,1.52,BR,1635033516
186,henties bay,-22.116,14.2845,58.86,93,2,9.31,NA,1635033518
187,airai,-8.9266,125.4092,73.51,46,57,1.41,TL,1635033384
188,punta alta,-38.8759,-62.0736,51.03,54,18,9.75,AR,1635033526
189,salta,-24.7859,-65.4117,70.09,52,46,4.0,AR,1635033529
190,rawson,-43.3002,-65.1023,59.61,24,66,24.45,AR,1635033375
191,cabo san lucas,22.8909,-109.9124,85.05,73,20,13.67,MX,1635033265
192,castro,-24.7911,-50.0119,61.38,92,100,5.68,BR,1635033537
193,gulbarga,17.3333,76.8333,71.4,84,91,3.6,IN,1635033539
194,tadine,-21.55,167.8833,76.32,74,12,14.45,NC,1635033542
195,arraial do cabo,-22.9661,-42.0278,71.56,88,0,20.71,BR,1635033544
196,gwadar,25.1216,62.3254,77.79,67,0,3.04,PK,1635033546
197,plettenberg bay,-34.0527,23.3716,54.09,80,50,7.09,ZA,1635033549
198,namibe,-15.1961,12.1522,63.91,75,77,8.03,AO,1635033553
199,sabya,17.1495,42.6254,83.82,69,4,2.73,SA,1635033555
200,george town,5.4112,100.3354,78.89,88,20,1.99,MY,1635033304
201,constitucion,-35.3333,-72.4167,51.1,86,0,14.32,CL,1635033562
202,valparaiso,-33.0393,-71.6273,62.24,48,0,6.91,CL,1635033564
203,wundanyi,-3.4019,38.364,60.98,77,78,0.56,KE,1635033566
204,mahebourg,-20.4081,57.7,74.25,83,40,11.5,MU,1635033569
205,severo-kurilsk,50.6789,156.125,40.78,83,70,12.48,RU,1635033571
206,raudeberg,61.9875,5.1352,48.87,81,100,14.0,NO,1635033573
207,opuwo,-18.0607,13.84,64.9,28,9,3.13,NA,1635033575
208,west bay,19.3667,-81.4167,82.99,83,40,1.99,KY,1635033578
209,karasjok,69.4719,25.5112,24.91,88,85,2.08,NO,1635033580
210,taltal,-25.4,-70.4833,58.59,80,19,4.94,CL,1635033582
211,quatre cocos,-20.2078,57.7625,74.08,73,84,13.22,MU,1635033585
212,touros,-5.1989,-35.4608,81.5,79,28,12.68,BR,1635033587
213,lhokseumawe,5.1801,97.1507,78.44,83,100,5.53,ID,1635033589
214,ostrovnoy,68.0531,39.5131,25.97,92,100,17.52,RU,1635033592
215,sunndalsora,62.6754,8.5515,41.05,83,100,12.39,NO,1635033594
216,paracuru,-3.41,-39.0306,82.42,77,33,11.07,BR,1635033596
217,shingu,33.7333,135.9833,58.19,46,22,3.58,JP,1635033598
218,sao gabriel,-30.3364,-54.32,58.32,97,80,10.31,BR,1635033601
219,karratha,-20.7377,116.8463,87.26,25,94,7.29,AU,1635033606
220,inongo,-1.95,18.2667,71.96,93,31,5.01,CD,1635033609
221,broken hill,-31.95,141.4333,60.33,44,0,13.38,AU,1635033611
222,kifri,34.6959,44.9661,69.4,23,33,3.0,IQ,1635033614
223,ambilobe,-13.2,49.05,73.38,91,17,2.95,MG,1635033617
224,deputatskiy,69.3,139.9,-2.51,98,100,2.35,RU,1635033620
225,marystown,47.1666,-55.1483,58.86,100,100,8.93,CA,1635033622
226,bubaque,11.2833,-15.8333,83.08,73,99,10.49,GW,1635033625
227,lazaro cardenas,17.9583,-102.2,78.28,87,88,6.17,MX,1635033628
228,the valley,18.217,-63.0578,82.54,69,40,10.36,AI,1635033367
229,kato lekhonia,39.3333,23.0333,65.55,73,24,2.04,GR,1635033632
230,matara,5.9485,80.5353,77.74,83,62,9.64,LK,1635033383
231,lagoa,39.05,-27.9833,66.56,63,6,12.62,PT,1635033641
232,souillac,-20.5167,57.5167,74.35,78,45,9.8,MU,1635033646
233,marawi,7.9986,124.2928,72.64,76,73,2.89,PH,1635033650
234,eenhana,-17.4667,16.3333,67.55,16,9,2.62,NA,1635033652
235,san cristobal,7.7669,-72.225,67.95,97,75,2.77,VE,1635033655
236,kurchum,48.5722,83.6542,37.53,48,100,4.0,KZ,1635033657
237,sakaraha,-22.9,44.5333,62.87,88,0,1.66,MG,1635033659
238,stolin,51.8912,26.846,39.4,86,74,11.5,BY,1635033662
239,saint anthony,45.0205,-93.218,47.35,64,1,4.61,US,1635033664
240,gari,59.4307,62.3497,37.2,82,23,10.87,RU,1635033667
241,college,64.8569,-147.8028,39.29,76,83,1.3,US,1635033669
242,nemuro,43.3236,145.575,43.23,67,6,15.43,JP,1635033671
243,lima,-12.0432,-77.0282,66.9,76,75,17.27,PE,1635033600
244,filingue,14.3521,3.3168,86.05,45,90,6.85,NE,1635033676
245,linkou,45.3,130.2833,43.56,51,0,6.53,CN,1635033678
246,tela,15.7833,-87.45,79.93,85,69,4.38,HN,1635033680
247,tivaouane,14.9515,-16.8129,82.74,59,77,6.64,SN,1635033683
248,lishui,28.4604,119.9103,56.28,98,100,1.88,CN,1635033685
249,altay,47.8667,88.1167,24.66,63,17,6.26,CN,1635033440
250,richards bay,-28.783,32.0377,68.02,73,97,18.66,ZA,1635033691
251,mingyue,43.1069,128.9217,43.38,55,0,2.73,CN,1635033694
252,tuatapere,-46.1333,167.6833,57.22,83,100,1.07,NZ,1635033696
253,ascension,30.2169,-90.9001,79.02,83,1,0.0,US,1635033698
254,rudnogorsk,57.2639,103.7519,32.11,83,76,10.49,RU,1635033703
255,darhan,49.4867,105.9228,35.33,53,100,4.65,MN,1635033705
256,lynchburg,37.4138,-79.1423,59.11,79,44,2.26,US,1635033411
257,whitefish,48.4111,-114.3376,50.0,63,98,6.26,US,1635033622
258,linxia,35.6003,103.2064,43.38,79,60,0.74,CN,1635033711
259,teahupoo,-17.8333,-149.2667,75.16,79,100,6.82,PF,1635033714
260,yangjiang,21.85,111.9667,63.48,76,18,7.36,CN,1635033716
261,leningradskiy,69.3833,178.4167,10.8,93,100,9.24,RU,1635033718
262,hambantota,6.1241,81.1185,78.71,82,23,14.63,LK,1635033721
263,lebu,-37.6167,-73.65,50.54,91,13,7.58,CL,1635033723
264,kununurra,-15.7667,128.7333,87.78,62,40,8.05,AU,1635033725
265,upernavik,72.7868,-56.1549,19.11,83,100,11.86,GL,1635033728
266,tarko-sale,64.9225,77.785,34.21,96,100,18.7,RU,1635033730
267,sudbury,46.49,-80.99,39.42,80,70,4.63,CA,1635033675
268,vila franca do campo,37.7167,-25.4333,64.81,84,21,5.73,PT,1635033734
269,atambua,-9.1061,124.8925,83.17,62,60,3.71,ID,1635033737
270,port elizabeth,-33.918,25.5701,58.48,64,6,14.14,ZA,1635033739
271,weligama,5.9667,80.4167,77.85,84,36,10.02,LK,1635033741
272,cayenne,4.9333,-52.3333,78.1,89,0,0.0,GF,1635033609
273,minggang,32.4586,114.0486,54.57,63,7,3.11,CN,1635033746
274,koungou,-12.7336,45.2042,78.51,83,0,2.3,YT,1635033748
275,bose,45.4612,8.0137,51.24,84,0,4.25,IT,1635033750
276,saint-francois,46.4154,3.9054,34.68,100,0,3.44,FR,1635033753
277,cockburn town,21.4612,-71.1419,83.08,71,57,19.69,TC,1635033755
278,sola,-13.8833,167.55,81.14,76,24,17.63,VU,1635033757
279,puerto penasco,31.3167,-113.5333,77.92,78,56,8.99,MX,1635033760
280,pangnirtung,66.1451,-65.7125,24.13,86,98,5.82,CA,1635033762
281,alyangula,-13.8483,136.4192,86.7,63,36,13.15,AU,1635033764
282,arlit,18.7369,7.3853,84.4,14,6,8.32,NE,1635033529
283,sao filipe,14.8961,-24.4956,79.2,69,9,8.48,CV,1635033769
284,lakhisarai,25.1768,86.0932,69.78,78,1,4.0,IN,1635033771
285,verkh-usugli,52.7,115.1667,28.13,80,67,2.35,RU,1635033773
286,sri aman,1.2376,111.4621,75.25,97,96,1.16,MY,1635033775
287,fairbanks,64.8378,-147.7164,39.31,77,88,1.32,US,1635033532
288,makakilo city,21.3469,-158.0858,80.29,66,7,16.58,US,1635033780
289,vestmannaeyjar,63.4427,-20.2734,47.35,83,100,15.19,IS,1635033784
290,bengkulu,-3.8004,102.2655,77.23,86,90,2.55,ID,1635033787
291,flinders,-34.5833,150.8552,71.8,64,70,7.0,AU,1635033789
292,sabzevar,36.2126,57.6819,52.7,20,0,4.12,IR,1635033791
293,adrar,20.5022,-10.0711,82.89,16,35,7.34,MR,1635033794
294,hamilton,39.1834,-84.5333,56.98,83,100,1.36,US,1635033567
295,avera,33.194,-82.5271,65.71,54,0,3.6,US,1635033802
296,soledade,-28.8183,-52.5103,56.12,97,100,1.95,BR,1635033805
297,oksfjord,70.2396,22.3479,31.12,92,100,6.24,NO,1635033807
298,ixtapa,20.7,-105.2,85.23,79,75,8.05,MX,1635033809
299,kieta,-6.2167,155.6333,84.65,71,49,5.79,PG,1635033814
300,egvekinot,66.3167,-179.1667,11.84,84,100,5.91,RU,1635033816
301,muros,42.7762,-9.0603,57.83,95,3,5.14,ES,1635033818
302,berbera,10.4396,45.0143,82.47,61,34,7.61,SO,1635033820
303,narsaq,60.9167,-46.05,34.02,57,60,5.12,GL,1635033823
304,berlevag,70.8578,29.0864,36.1,65,100,24.58,NO,1635033827
305,sabang,5.8933,95.3214,80.89,76,97,2.39,ID,1635033829
306,kenai,60.5544,-151.2583,47.03,65,20,18.41,US,1635033832
307,srednekolymsk,67.45,153.6833,-6.57,92,37,4.68,RU,1635033834
308,pierre,44.3683,-100.351,52.05,54,90,5.99,US,1635033838
309,mantua,45.1667,10.7833,57.74,78,36,8.99,IT,1635033841
310,warmbad,-28.45,18.7333,53.64,59,0,7.4,NA,1635033843
311,kozhva,65.1073,57.0459,24.58,91,21,7.2,RU,1635033845
312,taoudenni,22.6783,-3.9836,83.03,20,0,8.14,ML,1635033848
313,bredasdorp,-34.5322,20.0403,48.27,76,24,2.06,ZA,1635033850
314,jumla,29.2747,82.1838,44.98,82,1,4.72,NP,1635033852
315,maua,-23.6678,-46.4614,82.69,56,75,8.21,BR,1635033570
316,saint george,37.1041,-113.5841,74.62,26,1,1.01,US,1635033857
317,fairlie,55.756,-4.8556,55.11,91,100,8.01,GB,1635033859
318,tegh,39.5579,46.4772,45.59,49,0,5.35,AM,1635033861
319,tautira,-17.7333,-149.15,80.62,84,100,17.85,PF,1635033753
320,ulaanbaatar,47.9077,106.8832,32.74,42,68,0.98,MN,1635033866
321,tual,-5.6667,132.75,84.02,74,88,14.23,ID,1635033868
322,poum,-20.2333,164.0167,74.21,78,5,7.4,NC,1635033870
323,kemijarvi,66.7131,27.4306,16.81,95,46,3.96,FI,1635033873
324,esso,55.9333,158.7,28.24,93,99,4.14,RU,1635033875
325,mazatlan,23.2167,-106.4167,86.02,84,1,4.0,MX,1635033796
326,tomatlan,19.9333,-105.25,79.2,91,88,4.81,MX,1635033885
327,isangel,-19.55,169.2667,80.71,78,75,9.22,VU,1635033888
328,mehamn,71.0357,27.8492,35.89,66,100,22.39,NO,1635033890
329,vila velha,-20.3297,-40.2925,73.35,88,75,9.22,BR,1635033892
330,micheweni,-4.9667,39.8333,75.88,80,21,4.27,TZ,1635033895
331,saint-augustin,51.226,-58.6502,40.64,92,100,14.85,CA,1635033897
332,irbeyskoye,55.6428,95.4522,41.88,62,100,19.44,RU,1635033899
333,jacobina,-11.1806,-40.5183,72.97,85,59,2.55,BR,1635033901
334,iqaluit,63.7506,-68.5145,31.73,80,90,11.01,CA,1635033904
335,kidal,18.4411,1.4078,86.81,30,48,2.75,ML,1635033907
336,zanjan,36.6736,48.4787,47.05,48,7,1.23,IR,1635033909
337,half moon bay,37.4636,-122.4286,68.7,71,90,1.01,US,1635033616
338,angoche,-16.2325,39.9086,73.58,83,30,9.93,MZ,1635033913
339,baruun-urt,46.6806,113.2792,33.84,43,21,7.65,MN,1635033916
340,najran,17.4924,44.1277,63.05,31,8,1.32,SA,1635033918
341,lebanon,36.2081,-86.2911,64.96,68,90,0.0,US,1635033684
342,anadyr,64.75,177.4833,0.1,84,40,8.01,RU,1635033924
343,maceio,-9.6658,-35.7353,79.54,82,29,14.16,BR,1635033751
344,red bank,40.3471,-74.0643,59.86,79,90,1.01,US,1635033929
345,tahta,26.7693,31.5021,69.3,51,2,10.36,EG,1635033931
346,flin flon,54.7682,-101.865,38.32,72,100,10.09,CA,1635033933
347,belogorsk,50.9158,128.4611,40.21,74,10,3.71,RU,1635033938
348,sfantu gheorghe,45.8667,25.7833,44.92,66,77,5.46,RO,1635033940
349,atikokan,48.7555,-91.6216,35.74,74,99,4.0,CA,1635033942
350,anchorage,61.2181,-149.9003,47.86,75,20,3.0,US,1635033901
351,udachnyy,66.4167,112.4,26.08,93,84,20.85,RU,1635033947
352,awjilah,29.1081,21.2869,71.08,37,25,12.01,LY,1635033951
353,clyde river,70.4692,-68.5914,18.77,81,95,14.05,CA,1635033953
354,katherine,-14.4667,132.2667,86.32,54,5,9.22,AU,1635033955
355,tygda,53.1167,126.3333,37.15,78,12,4.07,RU,1635033958
356,bani walid,31.7566,13.9942,76.1,42,99,8.08,LY,1635033960
357,dondo,-19.6094,34.7431,71.44,87,0,3.29,MZ,1635033962
358,prince rupert,54.3161,-130.3201,43.84,88,91,9.13,CA,1635033965
359,iquique,-20.2208,-70.1431,60.84,74,11,6.29,CL,1635033937
360,ivanteyevka,55.9711,37.9208,41.34,95,68,8.63,RU,1635033969
361,storforshei,66.4043,14.5233,30.65,91,100,3.91,NO,1635033934
362,fare,-16.7,-151.0167,76.5,83,100,9.84,PF,1635033974
363,valerianovsk,58.76,59.5522,40.51,82,46,7.94,RU,1635033976
364,gerede,40.8008,32.1969,43.12,79,94,2.24,TR,1635033978
365,dingle,10.9995,122.6711,78.4,89,100,4.09,PH,1635033981
366,keuruu,62.2667,24.7,25.81,97,15,2.21,FI,1635033983
367,aksu,41.1231,80.2644,45.75,31,7,5.93,CN,1635033985
368,yerbogachen,61.2767,108.0108,29.86,83,61,10.8,RU,1635033988
369,nanortalik,60.1432,-45.2371,35.51,75,19,17.27,GL,1635033990
370,coihaique,-45.5752,-72.0662,38.66,96,54,7.25,CL,1635033841
371,dutse,11.7594,9.3392,76.89,65,62,2.48,NG,1635033994
372,acari,-15.4311,-74.6158,65.37,72,33,4.9,PE,1635033996
373,sur,22.5667,59.5289,79.63,68,0,9.37,OM,1635033999
374,ville-marie,47.3335,-79.433,34.92,76,90,5.21,CA,1635034001
375,chumikan,54.7183,135.315,37.78,73,60,14.88,RU,1635034003
376,ballina,-28.8667,153.5667,84.38,47,47,12.03,AU,1635034006
377,xinqing,48.2333,129.5,39.6,59,3,5.23,CN,1635034008
378,bousse,12.6606,-1.8922,82.15,56,100,6.08,BF,1635033979
379,hofn,64.2539,-15.2082,45.34,75,90,5.1,IS,1635034012
380,mendeleyevo,56.0333,37.2167,40.48,93,90,6.71,RU,1635034015
381,kavaratti,10.5669,72.642,80.55,78,83,2.06,IN,1635034017
382,beringovskiy,63.05,179.3167,13.01,73,3,8.01,RU,1635034019
383,hastings,50.8552,0.5729,57.9,60,25,16.55,GB,1635034021
384,auki,-8.7676,160.7034,86.72,64,35,4.5,SB,1635034024
385,andijon,40.7821,72.3442,42.08,80,0,0.0,UZ,1635033887
386,kayseri,38.737,35.4968,28.42,69,0,0.0,TR,1635034029
387,prince george,53.9166,-122.753,54.63,52,59,3.0,CA,1635034018
388,njombe,-9.3333,34.7667,54.48,91,4,4.59,TZ,1635034033
389,dalby,-27.1833,151.2667,86.99,21,99,5.99,AU,1635034035
390,guanica,17.9716,-66.908,82.9,76,4,5.01,PR,1635034038
391,strezhevoy,60.7333,77.5889,40.98,89,94,13.6,RU,1635034040
392,matamoros,25.5333,-103.25,87.91,22,1,2.3,MX,1635034042
393,catalao,-18.1658,-47.9464,75.72,38,22,5.57,BR,1635034044
394,maragogi,-9.0122,-35.2225,78.98,80,29,12.3,BR,1635034035
395,salto,-31.3833,-57.9667,56.53,96,55,5.64,UY,1635034049
396,lamu,-2.2717,40.902,77.22,83,15,7.7,KE,1635034051
397,dawlatabad,36.4141,64.9053,46.15,33,0,4.32,AF,1635034053
398,shimoda,34.6667,138.95,60.1,60,69,10.56,JP,1635034048
399,borovichi,58.3878,33.9155,36.46,96,100,9.82,RU,1635034058
400,zhucheng,35.9947,119.3975,53.31,60,77,3.51,CN,1635034060
401,saint-paul,-21.0096,55.2707,75.29,93,18,1.01,RE,1635034062
402,olafsvik,64.8945,-23.7142,45.57,82,100,11.12,IS,1635034028
403,klaksvik,62.2266,-6.589,49.12,84,59,14.65,FO,1635034067
404,seymchan,62.8833,152.4333,2.66,72,38,1.23,RU,1635034069
405,keetmanshoop,-26.5833,18.1333,55.69,47,0,4.43,NA,1635034071
406,komatipoort,-25.4332,31.9548,71.69,69,29,18.48,ZA,1635034076
407,yumen,40.2833,97.2,36.86,41,72,6.11,CN,1635034078
408,kaeo,-35.1,173.7833,64.33,98,97,5.59,NZ,1635034080
409,gigmoto,13.7796,124.39,80.69,84,100,4.18,PH,1635034083
410,praia da vitoria,38.7333,-27.0667,65.75,79,10,10.98,PT,1635034085
411,gualeguay,-33.1416,-59.3097,58.48,55,37,5.95,AR,1635034087
412,wronki,52.7105,16.3804,39.29,93,13,5.53,PL,1635034092
413,lucapa,-8.4192,20.7447,65.14,88,100,4.16,AO,1635034094
414,cherskiy,68.75,161.3,-2.83,100,95,3.94,RU,1635034096
415,la ronge,55.1001,-105.2842,39.79,65,8,15.37,CA,1635034099
416,ulaangom,49.9811,92.0667,31.96,55,52,2.06,MN,1635034101
417,sao lourenco do sul,-31.3653,-51.9783,58.89,94,100,7.72,BR,1635034103
418,novoplatnirovskaya,46.1065,39.4191,54.52,87,100,7.29,RU,1635034106
419,chapada dos guimaraes,-15.4606,-55.7497,77.49,60,86,9.28,BR,1635034108
420,vicuna,-30.0319,-70.7081,68.77,51,0,1.48,CL,1635034110
421,bucerias,20.75,-105.3333,85.98,79,75,8.05,MX,1635034113
422,agadir,30.4202,-9.5982,59.45,80,0,7.87,MA,1635034119
423,beloha,-25.1667,45.05,68.77,80,0,4.32,MG,1635034121
424,te anau,-45.4167,167.7167,57.74,77,100,0.89,NZ,1635034019
425,colares,38.7992,-9.4469,61.79,53,27,8.01,PT,1635034096
426,saint-pierre,-21.3393,55.4781,74.84,81,75,6.91,RE,1635034101
427,cervo,43.6702,-7.4101,54.32,75,32,5.12,ES,1635034132
428,kendari,-3.945,122.4989,82.83,75,68,1.54,ID,1635034134
429,iskateley,67.6803,53.1512,26.87,90,38,8.86,RU,1635034137
430,goure,13.9835,10.2704,86.02,17,7,7.7,NE,1635034139
431,nara,34.6851,135.8049,58.98,52,14,2.55,JP,1635034141
432,voh,-20.9667,164.7,82.27,52,4,7.72,NC,1635034144
433,labuhan,-6.8844,112.2051,81.93,73,88,7.11,ID,1635034146
434,krasnoselkup,65.7,82.4667,32.34,99,100,7.38,RU,1635034148
435,khuzhir,53.1939,107.3397,41.13,71,97,5.3,RU,1635034151
436,dubai,25.2582,55.3047,82.33,69,0,4.61,AE,1635033965
437,oyon,-10.6681,-76.7731,49.24,79,79,2.57,PE,1635034155
438,ayan,56.45,138.1667,39.06,64,24,6.58,RU,1635034158
439,aranos,-24.1333,19.1167,54.77,64,0,16.53,NA,1635034160
440,port hedland,-20.3167,118.5667,93.25,12,91,19.57,AU,1635034162
441,truth or consequences,33.1284,-107.2528,77.23,13,1,13.8,US,1635034165
442,dangtu,31.5723,118.4928,59.45,70,53,6.15,CN,1635034167
443,qasigiannguit,68.8193,-51.1922,21.45,95,100,3.56,GL,1635033979
444,bonavista,48.6499,-53.1147,51.26,100,100,4.05,CA,1635034169
445,chihuahua,28.5,-106.0,81.43,20,0,5.84,MX,1635034163
446,port hardy,50.6996,-127.4199,49.55,83,54,13.02,CA,1635034004
447,zbiroh,49.8602,13.7726,40.19,76,34,1.97,CZ,1635034178
448,bulolo,-7.2,146.65,84.61,52,47,4.18,PG,1635034180
449,ponta do sol,32.6667,-17.1,70.43,64,21,6.89,PT,1635034019
450,kuloy,61.0305,42.4925,31.46,96,100,7.49,RU,1635034184
451,baturinskaya,45.7927,39.3707,55.45,91,99,4.32,RU,1635034187
452,vanimo,-2.6741,141.3028,84.61,66,53,7.23,PG,1635034189
453,azangaro,-14.9167,-70.2167,56.77,33,87,2.51,PE,1635034191
454,saiha,22.4833,92.9667,62.6,90,37,3.38,IN,1635034194
455,sahuaripa,29.05,-109.2333,85.21,22,0,11.74,MX,1635034196
456,panjab,34.388,67.0233,28.65,44,0,3.27,AF,1635034198
457,smithers,54.7804,-127.1743,43.81,81,84,2.26,CA,1635034200
458,melbu,68.5044,14.8297,38.32,79,100,5.41,NO,1635034203
459,buala,-8.145,159.5921,85.87,62,22,5.66,SB,1635034118
460,llanelli,51.682,-4.1619,57.94,78,100,22.5,GB,1635034208
461,dera bugti,29.0307,69.151,68.32,42,0,5.23,PK,1635034210
462,melfi,40.9965,15.6514,59.49,95,100,5.93,IT,1635034213
463,mount darwin,-16.7725,31.5838,74.59,38,21,1.88,ZW,1635034215
464,olinda,-8.0089,-34.8553,79.29,79,24,10.96,BR,1635034056
465,tessalit,20.1986,1.0114,82.96,22,37,7.7,ML,1635034221
466,campo verde,-20.4167,-54.0667,88.81,42,50,18.57,BR,1635034224
467,san luis,-33.295,-66.3356,59.95,26,0,6.46,AR,1635034226
468,monrovia,6.3005,-10.7969,76.64,89,98,3.2,LR,1635034228
469,oussouye,12.485,-16.5469,77.47,80,74,3.71,SN,1635034231
470,broome,42.2506,-75.833,46.2,85,75,0.0,US,1635034233
471,areosa,41.7178,-8.8571,57.9,77,10,2.66,PT,1635034235
472,spearfish,44.4908,-103.8594,51.31,80,75,3.44,US,1635034057
473,baoqing,46.3317,132.2111,48.72,42,0,9.4,CN,1635034240
474,manati,18.4275,-66.4921,81.72,82,7,9.24,PR,1635034242
475,cabay,13.8783,121.3772,78.89,89,99,7.05,PH,1635034244
476,gladstone,-23.85,151.25,88.79,61,67,8.05,AU,1635034247
477,domoni,-12.2569,44.5319,77.38,85,69,3.74,KM,1635034249
478,muyezerskiy,63.9333,31.65,19.04,97,100,3.47,RU,1635034251
479,moron,-34.6534,-58.6198,65.95,52,35,1.01,AR,1635034256
480,dzhebariki-khaya,62.2167,135.8,13.12,94,100,3.27,RU,1635034258
481,cassilandia,-19.1133,-51.7342,82.44,49,58,7.87,BR,1635034260
482,coromandel,-18.4733,-47.2003,77.29,45,78,8.97,BR,1635034263
483,chuka,-0.3332,37.6459,64.02,70,54,3.0,KE,1635034265
484,tecpan,14.7623,-90.9947,63.36,97,84,1.3,GT,1635034267
485,cascavel,-24.9558,-53.4553,61.93,93,100,12.57,BR,1635034270
486,aden,12.7794,45.0367,82.89,69,47,8.77,YE,1635034272
487,ferme-neuve,46.7001,-75.4493,36.07,68,84,0.83,CA,1635034275
488,uyemskiy,64.4743,40.8524,24.85,93,20,2.24,RU,1635034277
489,grand gaube,-20.0064,57.6608,74.37,75,93,4.0,MU,1635034042
490,gawler,-34.6,138.7333,63.45,63,7,7.16,AU,1635034083
491,seoul,37.5683,126.9778,51.24,45,53,1.12,KR,1635034208
492,ugoofaaru,5.6667,73.0,82.08,72,96,15.86,MV,1635034288
493,tiksi,71.6872,128.8694,1.09,95,100,9.35,RU,1635033998
494,krasnomayskiy,57.6194,34.4099,35.82,96,99,6.29,RU,1635034292
495,mildura,-34.2,142.15,62.08,44,40,10.36,AU,1635034294
496,san blas,21.5167,-105.2667,87.69,82,94,4.47,MX,1635034297
497,surt,31.2089,16.5887,80.51,33,100,20.94,LY,1635034301
498,devils lake,48.1128,-98.8651,39.31,72,1,10.0,US,1635034148
499,kamaishi,39.2667,141.8833,56.12,58,3,5.14,JP,1635034306
500,pundaguitan,6.3711,126.1689,82.65,72,100,3.18,PH,1635034308
501,catamayo,-3.9833,-79.35,66.34,97,100,3.09,EC,1635034310
502,mosquera,4.7059,-74.2302,57.29,100,75,4.61,CO,1635034312
503,kyra,49.5776,111.9753,32.47,54,46,3.38,RU,1635034317
504,bilibino,68.0546,166.4372,-6.45,98,96,0.83,RU,1635034319
505,coos bay,43.3665,-124.2179,59.02,94,90,5.75,US,1635034281
506,kannur,11.8675,75.3576,75.2,90,82,3.98,IN,1635034324
507,wad madani,14.4012,33.5199,87.03,31,72,4.03,SD,1635034326
508,slavsk,55.0425,21.677,42.49,79,99,6.67,RU,1635034328
509,shar,49.5886,81.0453,40.78,56,88,16.02,KZ,1635034331
510,sept-iles,50.2001,-66.3821,46.92,100,90,6.91,CA,1635034202
511,sribne,50.6638,32.9187,39.97,70,25,7.78,UA,1635034335
512,lovozero,68.005,35.0117,23.9,81,98,10.94,RU,1635034340
513,pedasi,7.5333,-80.0333,77.07,83,37,13.89,PA,1635034342
514,beira,-19.8436,34.8389,74.01,85,0,7.52,MZ,1635034346
515,nyurba,63.2842,118.3319,32.88,83,96,11.25,RU,1635034349
516,mlandizi,-6.7,38.7333,70.23,96,18,0.63,TZ,1635034351
517,salina,38.8403,-97.6114,72.84,82,20,13.8,US,1635034155
518,lorengau,-2.0226,147.2712,84.45,73,67,10.92,PG,1635034064
519,tigil,57.8,158.6667,29.21,86,100,6.2,RU,1635034357
520,banjarmasin,-3.3244,114.591,77.14,77,95,1.59,ID,1635034360
521,ibipeba,-11.6408,-42.0111,74.07,79,100,4.88,BR,1635034362
522,xianshuigu,38.985,117.3828,44.6,87,27,2.24,CN,1635034364
523,jackson,42.4165,-122.8345,58.15,74,75,5.75,US,1635034189
524,mae chan,20.1467,99.8526,72.79,99,100,1.63,TH,1635034369
525,medzev,48.7004,20.8937,40.1,82,7,4.05,SK,1635034371
526,brae,60.3964,-1.353,53.51,88,100,21.65,GB,1635034374
527,simao,22.7886,100.9748,59.59,98,100,1.3,CN,1635034376
528,korla,41.7597,86.1469,49.35,38,100,4.5,CN,1635034378
529,nassau,40.7507,-73.5829,58.98,70,90,0.0,US,1635034382
530,carnaiba,-8.7,-37.6667,79.05,68,89,6.33,BR,1635034385
531,esmeraldas,-19.7625,-44.3139,76.06,79,30,10.16,BR,1635034387
532,ca mau,9.1769,105.15,78.03,89,93,4.72,VN,1635034389
533,xiamen,24.4798,118.0819,70.25,78,99,6.58,CN,1635034392
534,sisimiut,66.9395,-53.6735,24.12,94,100,5.68,GL,1635034394
535,shenjiamen,29.9576,122.298,65.17,68,100,13.49,CN,1635034396
536,kattivakkam,13.2167,80.3167,80.69,82,96,4.32,IN,1635034399
537,fontenay-le-comte,46.5833,-1.0,46.85,73,0,4.65,FR,1635034401
538,santa maria,-29.6842,-53.8069,60.33,98,96,6.11,BR,1635034283
539,panaba,21.2833,-88.2667,78.58,80,92,8.28,MX,1635034405
540,pisco,-13.7,-76.2167,63.01,82,0,18.41,PE,1635034116
541,laguna,38.421,-121.4238,66.25,69,90,1.01,US,1635034410
542,teguise,29.0605,-13.564,68.22,60,40,4.61,ES,1635034412
543,havre-saint-pierre,50.2334,-63.5986,45.75,89,100,8.95,CA,1635034352
544,coahuayana,18.7333,-103.6833,83.68,82,99,3.56,MX,1635034371
545,ajdabiya,30.7554,20.2263,72.82,36,66,13.6,LY,1635034419
546,havoysund,70.9963,24.6622,31.08,54,100,18.57,NO,1635034421
547,portland,45.5234,-122.6762,56.86,94,90,1.01,US,1635034237
548,trinidad,-14.8333,-64.9,94.08,37,36,8.14,BO,1635034258
549,guajara,-2.9667,-57.6667,80.06,79,97,2.46,BR,1635034427
550,bathsheba,13.2167,-59.5167,83.01,69,40,23.02,BB,1635034189
551,campanario,38.8644,-5.6174,57.34,47,37,2.06,ES,1635034434
552,belaya gora,68.5333,146.4167,-6.97,90,84,4.9,RU,1635034436
553,dicabisagan,17.0818,122.4157,78.03,88,100,2.66,PH,1635034438
554,bayir,37.2687,28.2167,48.72,61,16,3.36,TR,1635034441
555,inta,66.0317,60.1659,23.4,94,96,12.48,RU,1635034443
556,prado,-17.3411,-39.2208,75.11,87,64,5.75,BR,1635034360
557,srikakulam,18.3,83.9,73.69,77,90,4.76,IN,1635034448
558,buford,34.1207,-84.0043,64.02,76,1,0.0,US,1635034398
559,riyadh,24.6877,46.7219,75.34,24,1,10.36,SA,1635034235
560,porto walter,-8.2686,-72.7439,83.41,62,100,3.09,BR,1635034454
561,ipira,-12.1583,-39.7372,75.15,84,95,9.33,BR,1635034456
562,san andres,12.5847,-81.7006,82.42,83,40,2.3,CO,1635034441
563,laon,49.5667,3.6667,46.67,87,6,6.06,FR,1635034461
564,eureka,40.8021,-124.1637,64.13,72,100,8.99,US,1635034463
565,tynda,55.1667,124.7167,33.58,77,33,0.87,RU,1635034465
566,marsh harbour,26.5412,-77.0636,79.88,76,59,10.69,BS,1635034468
567,wanaka,-44.7,169.15,66.11,60,100,3.0,NZ,1635034395
568,ushibuka,32.1906,130.0228,63.07,58,72,4.34,JP,1635034472
569,ron,15.6667,75.7333,71.31,90,100,4.68,IN,1635034474
570,la rioja,42.25,-2.5,41.49,55,0,6.22,ES,1635034477
571,ailigandi,9.2333,-78.0167,79.77,84,69,3.56,PA,1635034479
572,lakes entrance,-37.8811,147.981,59.16,59,93,17.85,AU,1635034481
573,kabompo,-13.5927,24.2008,70.14,60,62,3.89,ZM,1635034486
574,jalu,29.0331,21.5482,70.54,37,10,10.58,LY,1635034488
575,langsa,4.4683,97.9683,74.71,95,100,2.1,ID,1635034490
576,sambava,-14.2667,50.1667,74.68,92,53,4.18,MG,1635034492
577,belmonte,-15.8631,-38.8828,74.55,91,100,2.26,BR,1635034495
